[
	{
	    "id": 1,
	    "country": "Francia",
	    "city": "París",
	    "category": "Restaurante-Bar",
	    "name": "Une Souris Et des Hommes",
	    "address": "17 Rue de Maubeuge, 75009 París, Francia",
	    "price_average": 20,
	    "image":"https://media-cdn.tripadvisor.com/media/photo-s/05/d4/aa/d2/une-souris-et-des-hommes.jpgrg/wikipedia/commons/0/05/King's_College,_Old_Aberdeen_-_geograph.org.uk_-_118509.jpg",
	    "position": {
	      "lat": 48.8777532,
	      "long": 2.3413421
    	}
  	},
  	{
	    "id": 2,
	    "country": "Francia",
	    "city": "París",
	    "category": "Restaurante-Bar",
	    "name": "Le saotico",
	    "address": "96 Rue de Richelieu, 75002 París, Francia",
	    "price_average": 15,
	    "image":"http://www.saotico.com/images/restaurant-paris-2-saotico-6.jpg",
	    "position": {
	      "lat": 48.870768,
	      "long": 2.3389614
    	}
  	},
  	{
	    "id": 3,
	    "country": "Francia",
	    "city": "París",
	    "category": "Restaurante-Bar",
	    "name": "Le Sens Unique",
	    "address": "47 rue de Ponthieu, 75008 París, Francia",
	    "price_average": 35,
	    "image":"http://u.tfstatic.com/restaurant_photos/342/10342/169/612/Bienvenue-au-restaurant-Le-Sens-Unique-.jpg",
	    "position": {
	      "lat": 48.8718397,
	      "long": 2.305415
    	}
  	},
  	{
	    "id": 4,
	    "country": "Francia",
	    "city": "París",
	    "category": "Restaurante-Bar",
	    "name": "Monsieur Benjamin",
	    "address": "63 Rue Saint Martin, 75004 París, Francia",
	    "price_average": 15,
	    "image":"http://lostinsf.com/sites/default/files/imagecache/opengraph-preview/monsieur_benjamin_1_2.jpg",
	    "position": {
	      "lat": 48.8594883,
	      "long": 2.3494873
    	}
  	},
  	{
	    "id": 5,
	    "country": "Francia",
	    "city": "París",
	    "category": "Restaurante-Bar",
	    "name": "SOPI Bistrot",
	    "address": "14, rue Jean-Baptiste Pigalle, 75009 París, Francia",
	    "price_average": 30,
	    "image":"http://sopi-bistrot.fr/images/slider/4.jpg",
	    "position": {
	      "lat": 48.8785599,
	      "long": 2.3321556
    	}
  	},
  	{
	    "id": 6,
	    "country": "Francia",
	    "city": "París",
	    "category": "Restaurante-Bar",
	    "name": "Thaixpress Stmichel",
	    "address": "1 Rue Hautefeuille, 75006 París, Francia",
	    "price_average": 10,
	    "image":"https://media-cdn.tripadvisor.com/media/photo-s/07/ef/9d/95/thaixpress.jpg",
	    "position": {
	      "lat": 48.8528227,
	      "long": 2.3430701
    	}
  	},
  	{
	    "id": 7,
	    "country": "Francia",
	    "city": "París",
	    "category": "Restaurante-Bar",
	    "name": "Comptoirs Richard",
	    "address": "48, Rue du Cherche-Midi, 75006 París, Francia",
	    "price_average": 15,
	    "image":"http://esphoto500x500.mnstatic.com/comptoirs-richard_7358061.jpg",
	    "position": {
	      "lat": 48.8494521,
	      "long": 2.3255946
    	}
  	},
  	{
	    "id": 8,
	    "country": "Francia",
	    "city": "París",
	    "category": "Restaurante-Bar",
	    "name": "Elaichi Vegetarian Street Food",
	    "address": "7 rue du faubourg St martin, 75010 París, Francia",
	    "price_average": 12,
	    "image":"http://s3-media1.fl.yelpcdn.com/bphoto/WWGgKSXYextnKgSI7OtzgQ/l.jpg",
	    "position": {
	      "lat": 48.8695368,
	      "long": 2.3556445
    	}
  	},
  	{
	    "id": 9,
	    "country": "Francia",
	    "city": "París",
	    "category": "Restaurante-Bar",
	    "name": "American Corner",
	    "address": "17 Rue de Maubeuge, 75009 París, Francia",
	    "price_average": 18,
	    "image":"http://cdn.ou-dejeuner.com/establishment/photo/establishment/75005-paris-5/american-corner_55623_9b7.jpg",
	    "position": {
	      "lat": 48.8470924,
	      "long": 2.3428013
    	}
  	},
  	{
	    "id": 10,
	    "country": "Francia",
	    "city": "París",
	    "category": "Restaurante-Bar",
	    "name": "La Catrina",
	    "address": "136 Boulevard Vincent Auriol, 75013 París, Francia",
	    "price_average": 15,
	    "image":"https://media-cdn.tripadvisor.com/media/photo-s/09/10/d3/58/la-catrina.jpg",
	    "position": {
	      "lat": 48.832961,
	      "long": 2.3607947
    	}
  	},
  	{
	    "id": 11,
	    "country": "Francia",
	    "city": "París",
	    "category": "Restaurante-Bar",
	    "name": "Crêperie de Saint-Malo",
	    "address": "53 rue du Montparnasse, 75014 París, Francia",
	    "price_average": 14,
	    "image":"http://u.tfstatic.com/restaurant_photos/284/31284/169/612/creperie-saint-malo-creperie-bastille-254b7.jpg",
	    "position": {
	      "lat": 48.8426027,
	      "long": 2.325765
    	}
  	},
  	{
	    "id": 12,
	    "country": "Francia",
	    "city": "París",
	    "category": "Restaurante-Bar",
	    "name": "Zino",
	    "address": "28, rue Vernier, 75017 París, Francia",
	    "price_average": 10,
	    "image":"http://www.zinoparis.com/wp-content/uploads/2015/03/restaurant-italien-zino-villiers-paris-75017033.jpg",
	    "position": {
	      "lat": 48.8844778,
	      "long": 2.2909156
    	}
  	},
  	{
	    "id": 13,
	    "country": "Francia",
	    "city": "París",
	    "category": "Museo",
	    "name": "Museo del Louvre",
	    "address": "99 rue de Rivoli, 75058 París, Francia",
	    "price_average": 15,
	    "image": "http://www.esviajes.com/wp-content/uploads/2012/02/Museo-del-Louvre.jpg",
	    "position": {
	      "lat": 48.8606146,
	      "long": 2.3354553
    	}
  	},
  	{
	    "id": 14,
	    "country": "Francia",
	    "city": "París",
	    "category": "Museo",
	    "name": "Museo de la Orangerie",
	    "address": "Jardin des Tuileries - Cote Seine, 75001 París,",
	    "price_average": 20,
	    "image":"http://www.parismuseumpass.com/datas/musees/m/u/muse-national-de-lrsquoorangerie/xl/musee-national-de-l--514881559578f.jpg",
	    "position": {
	      "lat": 48.8637919,
	      "long": 2.3204837
    	}
  	},
  	{
	    "id": 15,
	    "country": "Francia",
	    "city": "París",
	    "category": "Museo",
	    "name": "Museo Rodin",
	    "address": "79 rue de Varenne, 75007 París, Francia",
	    "price_average": 30,
	    "image":"http://www.parismuseumpass.com/datas/musees/m/u/muse-rodin/xl/musee-rodin-4ba2573341b4d.jpg",
	    "position": {
	      "lat": 48.8553107,
	      "long": 2.3136467
    	}
  	},
  	{
	    "id": 16,
	    "country": "Francia",
	    "city": "París",
	    "category": "Museo",
	    "name": "Musée d'Orsay",
	    "address": "1, Rue de la Légion d'Honneur, 75007 París,",
	    "price_average": 10,
	    "image":"http://europeantrips.org/wp-content/uploads/2012/03/Mus%C3%A9e-dOrsay.jpg",
	    "position": {
	      "lat": 48.859886,
	      "long": 2.3258348
    	}
  	},
  	{
	    "id": 17,
	    "country": "Francia",
	    "city": "París",
	    "category": "Museo",
	    "name": "Centre Pompidou",
	    "address": "Place Georges Pompidou, 75004 París, Francia",
	    "price_average": 15,
	    "image":"http://www.aviewoncities.com/img/paris/kvefr4023s.jpg",
	    "position": {
	      "lat": 48.8606455,
	      "long": 2.3500563
    	}
  	},
  	{
	    "id": 18,
	    "country": "Francia",
	    "city": "París",
	    "category": "Museo",
	    "name": "Museo Marmottan Monet",
	    "address": "2 Rue Louis Boilly | 16th arrondissement, 75016 París, Francia",
	    "price_average": 10,
	    "image":"http://es.parisinfo.com/var/otcp/sites/images/media/1.-photos/80.-photos-sugar/lieux-de-loisirs-et-de-culture/musee-marmottan-monet-4-630x405-c-otcp-dr/5047804-1-fre-FR/Musee-Marmottan-Monet-4-630x405-C-OTCP-DR.jpg",
	    "position": {
	      "lat": 48.859338,
	      "long": 2.2667763
    	}
  	},
  	{
	    "id": 19,
	    "country": "Francia",
	    "city": "París",
	    "category": "Museo",
	    "name": "Museo Jacquemart-Andre",
	    "address": "158, Boulevard Haussmann, 75008 París, Francia",
	    "price_average": 15,
	    "image":"http://es.parisinfo.com/var/otcp/sites/images/media/1.-photos/80.-photos-sugar/lieux-de-loisirs-et-de-culture/musee-jacquemart-andre-1-630x405-c-c-recoura/5047363-1-fre-FR/Musee-Jacquemart-Andre-1-630x405-C-C-Recoura.jpg",
	    "position": {
	      "lat": 48.8755563,
	      "long": 2.3100119
    	}
  	},
  	{
	    "id": 20,
	    "country": "Francia",
	    "city": "París",
	    "category": "Museo",
	    "name": "Petit Palais, City of Paris Fine Art Museum",
	    "address": "Av. Winston-Churchill, 75008 París, Francia",
	    "price_average": 12,
	    "image":"http://uk.france.fr/sites/default/files/164-28_cmjn_0.jpg",
	    "position": {
	      "lat": 48.8661314,
	      "long": 2.3136145
    	}
  	},
  	{
	    "id": 21,
	    "country": "Francia",
	    "city": "París",
	    "category": "Teatro-Opera",
	    "name": "Palais Garnier - Opéra National de Paris",
	    "address": "8 rue Scribe, Place de l'Opéra, 75009 París, Francia",
	    "price_average": 10,
	    "image":"http://www.world-arts.com/netimage/web_image_files/opera-garnier-paris-audatorium-2_web_image.jpg",
	    "position": {
	      "lat": 48.8720513,
	      "long": 2.3311543
    	}
  	},
  	{
	    "id": 22,
	    "country": "Francia",
	    "city": "París",
	    "category": "Teatro-Opera",
	    "name": "Opera Bastille - Opera National de Paris",
	    "address": "120, Rue de Lyon - Place de la Bastille, 75012 París, Francia",
	    "price_average": 20,
	    "image":"https://media-cdn.tripadvisor.com/media/photo-s/04/9e/9f/c5/opera-bastille.jpg",
	    "position": {
	      "lat": 48.8524418,
	      "long": 2.3680148
    	}
  	},
  	{
	    "id": 23,
	    "country": "Francia",
	    "city": "París",
	    "category": "Cine",
	    "name": "La Geode",
	    "address": "26 av Corentin-Cariou | 19th, París, Francia",
	    "price_average": 20,
	    "image":"https://c1.staticflickr.com/1/159/436306808_673be07dc8.jpg",
	    "position": {
	      "lat": 48.8946799,
	      "long": 2.3870815
    	}	
  	},
  	{
	    "id": 24,
	    "country": "Francia",
	    "city": "París",
	    "category": "Cine",
	    "name": "Le Nouveau Film Paris Story",
	    "address": "11 bis Rue Scribe, 75009 París, Francia",
	    "price_average": 10,
	    "image":"https://inspirock.s3.amazonaws.com/ds10/photos/France/f/le-nouveau-film-paris-story-409410136.jpg",
	    "position": {
	      "lat": 48.8724526,
	      "long": 2.3302993
    	}	
  	},
  	{
	    "id": 25,
	    "country": "Francia",
	    "city": "París",
	    "category": "Cine",
	    "name": "Studio Galande",
	    "address": "42 rue Galande | 5th, París, Francia",
	    "price_average": 14,
	    "image":"http://www.projectionniste.net/images/75-studio-galande-1.jpg",
	    "position": {
	      "lat": 48.8517415,
	      "long": 2.3468671
    	}	
  	},
  	{
	    "id": 26,
	    "country": "España",
	    "city": "Sevilla",
	    "category": "Restaurante-Bar",
	    "name": "Maquila Bar",
	    "address": "Calle Delgado, 4, 41002 Sevilla, España",
	    "price_average": 14,
	    "image":"https://media-cdn.tripadvisor.com/media/photo-s/07/de/68/4f/maquila.jpg",
	    "position": {
	      "lat": 37.3962181,
	      "long": -5.9948328
    	}	
  	},
  	{
	    "id": 28,
	    "country": "España",
	    "city": "Sevilla",
	    "category": "Restaurante-Bar",
	    "name": "La Bartola",
	    "address": "Calle San Jose 24, 41004 Sevilla, España",
	    "price_average": 12,
	    "image":"https://media-cdn.tripadvisor.com/media/photo-s/08/6e/22/01/photo2jpg.jpg",
	    "position": {
	      "lat": 37.386864,
	      "long": -5.9884523
    	}	
  	},
  	{
	    "id": 29,
	    "country": "España",
	    "city": "Sevilla",
	    "category": "Restaurante-Bar",
	    "name": "Eslava",
	    "address": "Eslava, 3, 41002 Sevilla, España",
	    "price_average": 25,
	    "image":"https://media-cdn.tripadvisor.com/media/photo-s/05/ea/bd/b7/the-entrance-and-tapas.jpg",
	    "position": {
	      "lat": 37.3975021,
	      "long": -5.9971382
    	}	
  	},
  	{
	    "id": 30,
	    "country": "España",
	    "city": "Sevilla",
	    "category": "Restaurante-Bar",
	    "name": "La Brunilda Tapas",
	    "address": "Galera 5, 41001 Sevilla, España",
	    "price_average": 15,
	    "image":"http://estaticos01.elmundo.es/yodona/blogs/sur-by-sur/imagenes_posts/2014/06/18/105425.jpg",
	    "position": {
	      "lat": 37.3881671,
	      "long": -5.9997246
    	}	
  	},
  	{
	    "id": 31,
	    "country": "España",
	    "city": "Sevilla",
	    "category": "Restaurante-Bar",
	    "name": "Vineria San Telmo",
	    "address": "Paseo Catalina de Ribera, 4, 41004 Sevilla, España",
	    "price_average": 15,
	    "image":"http://www.myhiddenparis.com/wp-content/uploads/2015/06/DSC00834.jpg",
	    "position": {
	      "lat": 37.3855016,
	      "long": -5.9866183
    	}	
  	},
  	{
	    "id": 32,
	    "country": "España",
	    "city": "Sevilla",
	    "category": "Restaurante-Bar",
	    "name": "El Gallinero de Sandra",
	    "address": "Pasaje Esperanza Elena Caro, 2, 41002 Sevilla, España",
	    "price_average": 20,
	    "image":"http://media-cdn.tripadvisor.com/media/photo-s/02/36/b9/d3/terraza.jpg",
	    "position": {
	      "lat": 37.3953586,
	      "long": -5.9951419
    	}	
  	},
  	{
	    "id": 33,
	    "country": "España",
	    "city": "Sevilla",
	    "category": "Restaurante-Bar",
	    "name": "Ovejas Negras Tapas",
	    "address": "Calle Hernando Colon 8, 41004 Sevilla, España",
	    "price_average": 15,
	    "image":"http://1.bp.blogspot.com/-ADeiEh6yjCc/VfrJKU6-owI/AAAAAAAAPRA/LLy2Od5pA9M/s1600/Ovejas-Negras%2Btapas%2B%25283%2529.jpg",
	    "position": {
	      "lat": 37.3876848,
	      "long": -5.993981
    	}	
  	},
  	{
	    "id": 34,
	    "country": "España",
	    "city": "Sevilla",
	    "category": "Restaurante-Bar",
	    "name": "Mamarracha",
	    "address": "Calle Hernando Colon 1 y 3, Sevilla, España",
	    "price_average": 13,
	    "image":"https://media-cdn.tripadvisor.com/media/photo-s/08/45/35/e0/mamarracha.jpg",
	    "position": {
	      "lat": 37.387902,
	      "long": -5.9937059
    	}	
  	},
  	{
	    "id": 35,
	    "country": "España",
	    "city": "Sevilla",
	    "category": "Restaurante-Bar",
	    "name": "Duo Tapas",
	    "address": "Calle Calatrava 10, 41002 Sevilla, España",
	    "price_average": 12,
	    "image":"http://findinsevilla.com/wp-content/uploads/2014/11/resized_IMG_2901.jpg",
	    "position": {
	      "lat": 37.4013849,
	      "long": -5.9940291
    	}	
  	},
  	{
	    "id": 36,
	    "country": "España",
	    "city": "Sevilla",
	    "category": "Museo",
	    "name": "Museo de Bellas Artes de Sevilla",
	    "address": "Plaza del Museo, 9, 41001 Sevilla, España",
	    "price_average": 10,
	    "image":"https://media-cdn.tripadvisor.com/media/photo-s/02/ce/43/25/museo-de-bellas-artes.jpg",
	    "position": {
	      "lat": 37.3924548,
	      "long": -6.0000202
    	}	
  	},
  	{
	    "id": 37,
	    "country": "España",
	    "city": "Sevilla",
	    "category": "Museo",
	    "name": "Museo Arqueológico de Sevilla",
	    "address": "Plaza de America, 41013 Sevilla, España",
	    "price_average": 8,
	    "image":"http://upload.wikimedia.org/wikipedia/commons/3/37/Museo_Arqueol%C3%B3gico_de_Sevilla.jpg",
	    "position": {
	      "lat": 37.3709514,
	      "long": -5.987529
    	}	
  	},
  	{
	    "id": 38,
	    "country": "España",
	    "city": "Sevilla",
	    "category": "Museo",
	    "name": "Museo de Artes y Costumbres Populares de Sevilla",
	    "address": "Plaza de America, 3, 41013 Sevilla, España",
	    "price_average": 8,
	    "image":"http://www.andalucia.org/media/fotos/image_160196_jpeg_800x600_q85.jpg",
	    "position": {
	      "lat": 37.3719114,
	      "long": -5.9884279
    	}	
  	},
  	{
	    "id": 39,
	    "country": "España",
	    "city": "Sevilla",
	    "category": "Museo",
	    "name": "Antiquarium de Sevilla",
	    "address": "Plaza de la Encarnacion, 41003 Sevilla, España",
	    "price_average": 5,
	    "image":"http://estaticos-agsv.sevilla.abc.es/wp-content/uploads/2014/05/antiquarium-sevilla.jpg",
	    "position": {
	      "lat": 37.3932404,
	      "long": -5.992444
    	}	
  	},
  	{
	    "id": 40,
	    "country": "España",
	    "city": "Sevilla",
	    "category": "Museo",
	    "name": "Archivo General de Indias",
	    "address": "Plaza de la Encarnacion, 41003 Sevilla, España",
	    "price_average": 5,
	    "image":"https://lalineaamarilla.files.wordpress.com/2014/03/dscn3359.jpg",
	    "position": {
	      "lat": 37.3849269,
	      "long": -5.9933402
    	}	
  	},
  	{
	    "id": 41,
	    "country": "España",
	    "city": "Sevilla",
	    "category": "Teatro-Opera",
	    "name": "Teatro Lope De Vega",
	    "address": "Av María Luisa, s/n, 41013 Sevilla, España",
	    "price_average": 12,
	    "image":"http://www.visitasevilla.es/sites/default/files/lopedevega.jpg",
	    "position": {
	      "lat": 37.3783462,
	      "long": -5.9911722
    	}	
  	},
  	{
	    "id": 42,
	    "country": "España",
	    "city": "Sevilla",
	    "category": "Teatro-Opera",
	    "name": "Teatro Quintero",
	    "address": "Calle Cuna, 15, 41004 Sevilla, España",
	    "price_average": 12,
	    "image":"http://1.bp.blogspot.com/-U-JgyZ0nBE8/T7JClsl3_1I/AAAAAAAAE_I/RvDPKV5WC5A/s1600/Teatro+Quintero+(1).JPG",
	    "position": {
	      "lat": 37.3917043,
	      "long": -5.993652
    	}	
  	},
  	{
	    "id": 43,
	    "country": "España",
	    "city": "Sevilla",
	    "category": "Teatro-Opera",
	    "name": "Tablao Flamenco El Arenal",
	    "address": "Calle Rodo 7, Barrio del Arenal, 41001 Sevilla, España",
	    "price_average": 14,
	    "image":"http://tablaoelarenal.com/wp-content/uploads/2015/03/tablao-14.jpg",
	    "position": {
	      "lat": 37.3850892,
	      "long": -5.9981881
    	}	
  	},
  	{
	    "id": 44,
	    "country": "España",
	    "city": "Sevilla",
	    "category": "Vida Nocturna",
	    "name": "Calle Betis Bars",
	    "address": "Calle Betis, 41010 Sevilla, España",
	    "price_average": 10,
	    "image":"http://www.sevilladirecto.com/wp-content/uploads/2013/06/calle-betis-veladores.jpg",
	    "position": {
	      "lat": 37.3832006,
	      "long": -5.9999496
    	}	
  	},
  	{
	    "id": 45,
	    "country": "España",
	    "city": "Sevilla",
	    "category": "Vida Nocturna",
	    "name": "Alameda Bars",
	    "address": "Alameda de Hércules, 41002 Sevilla, España",
	    "price_average": 10,
	    "image":"http://sevilla.abc.es/Media/201510/25/alameda-hercules-sevilla3--644x362.jpg",
	    "position": {
	      "lat": 37.3966521,
	      "long": -5.9947248
    	}	
  	},
  	{
	    "id": 46,
	    "country": "Escocia",
	    "city": "Aberdeen",
	    "category": "Restaurante-Bar",
	    "name": "Uncle Sam's BBQ",
	    "address": "19 Crown Terrace, Aberdeen AB11 6HD, Escocia",
	    "price_average": 15,
	    "image":"https://bcn-deals.scdn5.secure.raxcdn.com/media/catalog/product/cache/15/image/737x414/9df78eab33525d08d6e5fb8d27136e95/s/a/sams5.png",
	    "position": {
	      "lat": 57.1443309,
	      "long": -2.1018622
    	}	
  	},
  	{
	    "id": 47,
	    "country": "Escocia",
	    "city": "Aberdeen",
	    "category": "Restaurante-Bar",
	    "name": "Books and Beans",
	    "address": "22 Belmont Street, Aberdeen AB10 1JH, Escocia",
	    "price_average": 7,
	    "image":"http://3.bp.blogspot.com/-9WgBmx3cI94/UTKPXv49tpI/AAAAAAAADks/l5354f5z3Eo/s1600/feb27th04.jpg",
	    "position": {
	      "lat": 57.1469878,
	      "long": -2.1017508
    	}	
  	},
  	{
	    "id": 48,
	    "country": "Escocia",
	    "city": "Aberdeen",
	    "category": "Restaurante-Bar",
	    "name": "Locker Room Bar and Restaurant",
	    "address": "Trinity Quay House, 47-53 Market St, Aberdeen AB11 5PZ",
	    "price_average": 14,
	    "image":"https://media-cdn.tripadvisor.com/media/photo-s/09/32/ff/80/locker-room-bar-and-restaurant.jpg",
	    "position": {
	      "lat": 57.1456613,
	      "long": -2.0961235
    	}	
  	},
  	{
	    "id": 49,
	    "country": "Escocia",
	    "city": "Aberdeen",
	    "category": "Restaurante-Bar",
	    "name": "Las Iguanas",
	    "address": "18, Union Square Shopping Centre, Upper Level Mall, Guild St, Aberdeen AB11 5RG",
	    "price_average": 16	,
	    "image":"https://iatealltheburgers.files.wordpress.com/2013/04/las-iguanas.png",
	    "position": {
	      "lat": 57.144331,
	      "long": -2.0987891
    	}	
  	},
  	{
	    "id": 50,
	    "country": "Escocia",
	    "city": "Aberdeen",
	    "category": "Restaurante-Bar",
	    "name": "Old Schoolhouse",
	    "address": "Little Belmont Street, Aberdeen AB10 1JG, Escocia",
	    "price_average": 12,
	    "image":"https://media-cdn.tripadvisor.com/media/photo-s/09/22/8a/13/old-school-house.jpg",
	    "position": {
	      "lat": 57.1470581,
	      "long": -2.1014242
    	}	
  	},
  	{
	    "id": 51,
	    "country": "Escocia",
	    "city": "Aberdeen",
	    "category": "Museo",
	    "name": "The Gordon Highlanders Museum",
	    "address": "St Luke's, Viewfield Road, Aberdeen AB15 7XH, Escocia",
	    "price_average": 8,
	    "image":"https://www.visitscotland.com/wsimgs/gordon_highlanders_03_1967061539.jpg",
	    "position": {
	      "lat": 57.1379184,
	      "long": -2.1464143
    	}	
  	},
  	{
	    "id": 52,
	    "country": "Escocia",
	    "city": "Aberdeen",
	    "category": "Museo",
	    "name": "Aberdeen Maritime Museum",
	    "address": "52 - 56 Shiprow, Provost Ross House, Aberdeen AB11 5BY, Escocia",
	    "price_average": 12,
	    "image":"http://2.bp.blogspot.com/-tyL8ms9MHWw/Uxy2gZkWYkI/AAAAAAAAAes/0KXmYY9T8jM/s1600/IMG_1315.jpg",
	    "position": {
	      "lat": 57.1465393,
	      "long": -2.0961555
    	}	
  	},
  	{
	    "id": 53,
	    "country": "Escocia",
	    "city": "Aberdeen",
	    "category": "Museo",
	    "name": "Craigievar Castle",
	    "address": "Craigievar, Alford, Aberdeen AB33 8JF, Escocia",
	    "price_average": 8,
	    "image":"https://media-cdn.tripadvisor.com/media/photo-s/04/69/7f/42/craigievar-castle.jpg",
	    "position": {
	      "lat": 57.1747756,
	      "long": -2.7201204
    	}	
  	},
  	{
	    "id": 54,
	    "country": "Escocia",
	    "city": "Aberdeen",
	    "category": "Teatro-Opera",
	    "name": "His Majesty's Theatre (HMT)",
	    "address": "Rosemount Viaduct, Aberdeen AB25 1GL, Escocia",
	    "price_average": 13,
	    "image":"http://www.theatresonline.com/theatres/aberdeen-theatres/his-majestys-theatre/images/index.jpg",
	    "position": {
	      "lat": 57.148105,
	      "long": -2.1056092
    	}	
  	},
  	{
	    "id": 54,
	    "country": "Escocia",
	    "city": "Aberdeen",
	    "category": "Teatro-Opera",
	    "name": "Aberdeen Music Hall",
	    "address": "Union Street, Aberdeen AB1 1QS, Escocia",
	    "price_average": 12,
	    "image":"https://www.pressandjournal.co.uk/wp-content/uploads/sites/2/2015/03/Aberdeen-Music-Hall.jpg",
	    "position": {
	      "lat": 57.1452161,
	      "long": -2.1050714
    	}	
  	},
  	{
	    "id": 55,
	    "country": "Escocia",
	    "city": "Aberdeen",
	    "category": "Teatro-Opera",
	    "name": "Tivoli Theatre",
	    "address": "34 - 48 Guild Street, Aberdeen AB11 6NB, Escocia",
	    "price_average": 8,
	    "image":"http://www.schottlandberater.de/uploads/pics/tivoli-theatre-aberdeen.jpg",
	    "position": {
	      "lat": 57.1449738,
	      "long": -2.0979942
    	}	
  	},
  	{
	    "id": 56,
	    "country": "Escocia",
	    "city": "Aberdeen",
	    "category": "Vida Nocturna",
	    "name": "The Malt Mill",
	    "address": "82 Holburn Street, Aberdeen AB10 6BY, Escocia",
	    "price_average": 12,
	    "image":"http://s0.geograph.org.uk/geophotos/03/35/38/3353846_1d915092.jpg",
	    "position": {
	      "lat": 57.1408128,
	      "long": -2.1138678
    	}	
  	},
  	{
	    "id": 57,
	    "country": "Escocia",
	    "city": "Aberdeen",
	    "category": "Vida Nocturna",
	    "name": "The Trickery",
	    "address": "2 Langstane Place, Aberdeen AB11 5BU, Escocia",
	    "price_average": 10,
	    "image":"http://www.aberdeenperformingarts.com/uploads/event/box%20office%20dave.jpg",
	    "position": {
	      "lat": 57.1446193,
	      "long": -2.1045582
    	}	
  	},
  	{
	    "id": 58,
	    "country": "Escocia",
	    "city": "Aberdeen",
	    "category": "Vida Nocturna",
	    "name": "Cheerz Bar & Club",
	    "address": "2 Exchange Street, Aberdeen AB11 6PH, Escocia",
	    "price_average": 12,
	    "image":"https://media-cdn.tripadvisor.com/media/photo-s/08/f9/41/3a/cheerz-bar-club.jpg",
	    "position": {
	      "lat": 57.1460856,
	      "long": -2.0980646
    	}	
  	},
  	{
	    "id": 59,
	    "country": "Escocia",
	    "city": "Aberdeen",
	    "category": "Vida Nocturna",
	    "name": "Krakatoa",
	    "address": "2 Trinity Quay, Merchant Quarter, Aberdeen AB11 5AA, Escocia",
	    "price_average": 14,
	    "image":"http://files.stv.tv/imagebase/367/605x341/367315-krakatoa.jpg",
	    "position": {
	      "lat": 57.14594,
	      "long": -2.0961807
    	}	
  	},
  	{
	    "id": 60,
	    "country": "Escocia",
	    "city": "Aberdeen",
	    "category": "Vida Nocturna",
	    "name": "Casc",
	    "address": "7 Stirling Street, Aberdeen AB116ND, Escocia",
	    "price_average": 8,
	    "image":"http://www.cascbar.co.uk/extra/images/about/01.jpg",
	    "position": {
	      "lat": 57.1459786,
	      "long": -2.0979268
    	}	
  	}
]